[{"ID":3778,"Name":"Doughnut Vault Canal","Latitude":41.883976,"Longitude":-87.639346,"Address":"11 N Canal St L30 Chicago, IL 60606","ArrivalTime":"2016-01-21T03:13:03.817"},{"ID":3779,"Name":"Monk’s Pub","Latitude":41.885791,"Longitude":-87.634306,"Address":"205 W Lake St, Chicago, IL 60606","ArrivalTime":"2016-01-21T01:44:03.817"},{"ID":3780,"Name":"Cubby Bear","Latitude":41.947071,"Longitude":-87.656705,"Address":"1059 W Addison St, Chicago, IL 60613","ArrivalTime":"2016-01-21T03:27:03.817"},{"ID":3781,"Name":"Murphy’s Bleachers","Latitude":41.949014,"Longitude":-87.654087,"Address":"3655 N Sheffield Ave, Chicago, IL 60613","ArrivalTime":"2016-01-21T00:18:03.817"},{"ID":3782,"Name":"Wrigley Field","Latitude":41.948922,"Longitude":-87.655278,"Address":"1060 W Addison St, Chicago, IL 60613","ArrivalTime":"2016-01-20T21:45:03.817"},{"ID":3783,"Name":"Al’s Beef","Latitude":41.893197,"Longitude":-87.633901,"Address":"169 W Ontario St, Chicago, IL 60654","ArrivalTime":"2016-01-20T21:34:03.817"},{"ID":3784,"Name":"Bull & Bear","Latitude":41.890351,"Longitude":-87.633665,"Address":"431 N Wells St, Chicago, IL 60654","ArrivalTime":"2016-01-20T21:51:03.817"},{"ID":3785,"Name":"Frontera Grill","Latitude":41.891398,"Longitude":-87.630736,"Address":"445 N Clark St, Chicago, IL 60654","ArrivalTime":"2016-01-21T06:40:03.817"},{"ID":3786,"Name":"Lou Malnati's Pizzeria","Latitude":41.902197,"Longitude":-87.632935,"Address":"439 N Wells St, Chicago, IL 60654","ArrivalTime":"2016-01-21T05:02:03.817"},{"ID":3787,"Name":"Naf Naf Grill","Latitude":41.883045,"Longitude":-87.635689,"Address":"309 W Washington St, Chicago, IL 60606","ArrivalTime":"2016-01-20T23:15:03.817"},{"ID":3788,"Name":"Tribune Tower","Latitude":41.89031,"Longitude":-87.623295,"Address":"435 N Michigan Ave, Chicago, IL 60611","ArrivalTime":"2016-01-20T22:36:03.817"}]